[
  {
    "key": "0028",
    "latitude": -25.45119,
    "longitude": -49.22848,
    "name": "Madero Burger Jardim das Américas"
  },
  {
    "key": "0024",
    "latitude": -25.42256,
    "longitude": -49.27031,
    "name": "Madero Burger Shopping Mueller"
  },
  {
    "key": "0272",
    "latitude": -25.45222,
    "longitude": -49.36117,
    "name": "Madero Container JK MALL"
  },
  {
    "key": "J043",
    "latitude": -23.56081,
    "longitude": -46.67110,
    "name": "Jeronimo Burger Oscar Freire"
  },
  {
    "key": "0319",
    "latitude": -23.48830,
    "longitude": -46.63267,
    "name": "Madero Container Augusto Tolle"
  },
  {
    "key": "J081",
    "latitude": -25.40830,
    "longitude": -49.25077,
    "name": "Jeronimo Track Munhoz da Rocha"
  },
  {
    "key": "J078",
    "latitude": -19.82149,
    "longitude": -43.94726,
    "name": "Jeronimo Burger Shopping Estação BH"
  },
  {
    "key": "0025",
    "latitude": -25.43861,
    "longitude": -49.27780,
    "name": "Madero Burger Shopping Curitiba"
  },
  {
    "key": "J080",
    "latitude": -23.11025,
    "longitude": -47.23007,
    "name": "Jeronimo Track Indaiatuba"
  },
  {
    "key": "0167",
    "latitude": -23.51502,
    "longitude": -46.61693,
    "name": "Madero SteakHouse Center Norte"
  },
  {
    "key": "0210",
    "latitude": -21.18050,
    "longitude": -47.80813,
    "name": "Madero Burger Shopping Santa Úrsula"
  },
  {
    "key": "0207",
    "latitude": -16.62755,
    "longitude": -49.27818,
    "name": "Madero Burger Shopping Passeio das Águas"
  },
  {
    "key": "0006",
    "latitude": -25.438387,
    "longitude": -49.266746,
    "name": "Madero SteakHouse Shopping Estação"
  },
  {
    "key": "J060",
    "latitude": -22.90088,
    "longitude": -43.11310,
    "name": "Madero Burger Icaraí"
  },
  {
    "key": "0004",
    "latitude": -25.42560,
    "longitude": -49.27627,
    "name": "Madero SteakHouse Prime"
  },
  {
    "key": "0015",
    "latitude": -25.42809,
    "longitude": -49.29517,
    "name": "Madero SteakHouse Champagnat"
  },
  {
    "key": "0011",
    "latitude": -25.43442,
    "longitude": -49.27785,
    "name": "Madero SteakHouse Comendador"
  },
  {
    "key": "V002",
    "latitude": -25.4233736,
    "longitude": -49.2705198,
    "name": "Jeronimo Burger Shopping Mueller"
  },
  {
    "key": "0017",
    "latitude": -25.42360,
    "longitude": -49.24183,
    "name": "Madero SteakHouse Jardim Social"
  },
  {
    "key": "0032",
    "latitude": -25.44334,
    "longitude": -49.29044,
    "name": "Madero SteakHouse Patio Batel"
  },
  {
    "key": "0022",
    "latitude": -25.44616,
    "longitude": -49.29510,
    "name": "Madero SteakHouse Batel"
  },
  {
    "key": "0037",
    "latitude": -25.43512,
    "longitude": -49.28612,
    "name": "Jeronimo Burger Pc da Espanha"
  },
  {
    "key": "J071",
    "latitude": -24.9509875,
    "longitude": -53.4253648,
    "name": "Jeronimo Track Cascavel"
  },
  {
    "key": "0047",
    "latitude": -25.43424,
    "longitude": -50.05335,
    "name": "Madero Container Palmeira"
  },
  {
    "key": "0074",
    "latitude": -25.35128,
    "longitude": -51.45798,
    "name": "Madero Container Guarapuava"
  },
  {
    "key": "0217",
    "latitude": -25.52289,
    "longitude": -54.56213,
    "name": "Madero SteakHouse Foz do Iguaçu"
  },
  {
    "key": "0169",
    "latitude": -24.95064,
    "longitude": -53.47673,
    "name": "Madero SteakHouse JL Shopping Cascavel"
  },
  {
    "key": "0038",
    "latitude": -25.09489,
    "longitude": -50.15205,
    "name": "Madero SteakHouse Ponta Grossa"
  },
  {
    "key": "0232",
    "latitude": -23.42017,
    "longitude": -51.96955,
    "name": "Madero SteakHouse Shopping Catuai Maringa"
  },
  {
    "key": "0233",
    "latitude": -23.34222,
    "longitude": -51.18535,
    "name": "Madero SteakHouse Shopping Catuaí Londrina"
  },
  {
    "key": "0263",
    "latitude": -25.44681,
    "longitude": -49.50756,
    "name": "Madero Container Campo Largo"
  },
  {
    "key": "0278",
    "latitude": -23.78011,
    "longitude": -53.30135,
    "name": "Madero Container Umuarama"
  },
  {
    "key": "J026",
    "latitude": -25.09368,
    "longitude": -50.15906,
    "name": "Jeronimo Track Ponta Grossa"
  },
  {
    "key": "0285",
    "latitude": -25.47775,
    "longitude": -49.29096,
    "name": "Madero SteakHouse Shopping Palladium Curitiba"
  },
  {
    "key": "0316",
    "latitude": -25.41032,
    "longitude": -49.25311,
    "name": "Madero SteakHouse Cabral"
  },
  {
    "key": "J045",
    "latitude": -23.33085,
    "longitude": -51.17773,
    "name": "Jeronimo Track Londrina"
  },
  {
    "key": "J028",
    "latitude": -25.53485,
    "longitude": -49.18617,
    "name": "Jeronimo Burger Aeroporto Afonso Pena"
  },
  {
    "key": "J011",
    "latitude": -25.4409909,
    "longitude": -49.2774894,
    "name": "Jeronimo Burger Shopping Curitiba"
  },
  {
    "key": "J008",
    "latitude": -25.43811,
    "longitude": -49.26656,
    "name": "Jeronimo Burger Shopping Estação"
  },
  {
    "key": "H004",
    "latitude": -25.53485,
    "longitude": -49.18617,
    "name": "Madero SteakHouse Afonso Pena"
  },
  {
    "key": "H003",
    "latitude": -25.47775,
    "longitude": -49.29096,
    "name": "Jeronimo Burger Shopping Palladium"
  },
  {
    "key": "0016",
    "latitude": -27.10613,
    "longitude": -52.61176,
    "name": "Madero Container Chapecó"
  },
  {
    "key": "0180",
    "latitude": -26.63700,
    "longitude": -48.69775,
    "name": "Madero Container Barra Velha -SC"
  },
  {
    "key": "0181",
    "latitude": -26.91239,
    "longitude": -48.65383,
    "name": "Madero Container Itajaí -SC"
  },
  {
    "key": "0182",
    "latitude": -29.00365,
    "longitude": -49.55951,
    "name": "Madero Container Araranguá"
  },
  {
    "key": "0183",
    "latitude": -27.61155,
    "longitude": -48.64029,
    "name": "Madero SteakHouse Shopping Continente"
  },
  {
    "key": "0317",
    "latitude": -26.25379,
    "longitude": -48.853394,
    "name": "Madero SteakHouse Shopping Mueller Joinville"
  },
  {
    "key": "0184",
    "latitude": -26.25379,
    "longitude": -48.85339,
    "name": "Madero SteakHouse Shopping Garten"
  },
  {
    "key": "0264",
    "latitude": -27.58492,
    "longitude": -48.54501,
    "name": "Madero SteakHouse Shopping Beira Mar Floripa"
  },
  {
    "key": "0298",
    "latitude": -27.08926,
    "longitude": -48.61325,
    "name": "Madero Container Itapema"
  },
  {
    "key": "J022",
    "latitude": -27.58975,
    "longitude": -48.51528,
    "name": "Jeronimo Burger Shopping Iguatemi Floripa"
  },
  {
    "key": "J033",
    "latitude": -26.99269,
    "longitude": -48.64529,
    "name": "Jeronimo Burger Shopping Balneário "
  },
  {
    "key": "J036",
    "latitude": -26.99253,
    "longitude": -48.62914,
    "name": "Jeronimo Burger Millenium"
  },
  {
    "key": "0283",
    "latitude": -26.44184,
    "longitude": -48.79946,
    "name": "Madero Container Sinuelo"
  },
  {
    "key": "J072",
    "latitude": -26.28977,
    "longitude": -48.84361,
    "name": "Jeronimo Track Joinville"
  },
  {
    "key": "0300",
    "latitude": -26.99253,
    "longitude": -48.6291382,
    "name": "Madero SteakHouse Shopping Balnerário -SC"
  },
  {
    "key": "0287",
    "latitude": -27.52555,
    "longitude": -48.51356,
    "name": "Madero Container Primavera Garden"
  },
  {
    "key": "0299",
    "latitude": -26.99611,
    "longitude": -48.62651,
    "name": "Madero SteakHouse Atlântica - BC"
  },
  {
    "key": "0195",
    "latitude": -29.99743,
    "longitude": -51.13192,
    "name": "Madero Container Assis Brasil"
  },
  {
    "key": "J020",
    "latitude": -30.03285,
    "longitude": -51.1952677,
    "name": "Jeronimo Burger Bela Vista"
  },
  {
    "key": "0297",
    "latitude": -26.92066,
    "longitude": -49.06993,
    "name": "Madero SteakHouse Blumenau"
  },
  {
    "key": "0196",
    "latitude": -30.05932,
    "longitude": -51.17909,
    "name": "Madero Container PUC POA"
  },
  {
    "key": "J017",
    "latitude": -30.02387,
    "longitude": -51.1623311,
    "name": "Jeronimo Burger Shopping Iguatemi Porto Alegre"
  },
  {
    "key": "0197",
    "latitude": -30.02211,
    "longitude": -51.17281,
    "name": "Madero Container Anita"
  },
  {
    "key": "0205",
    "latitude": -30.05001,
    "longitude": -51.2288272,
    "name": "Madero SteakHouse Praia de Belas"
  },
  {
    "key": "0204",
    "latitude": -28.26357,
    "longitude": -52.40181,
    "name": "Madero Container Passo Fundo"
  },
  {
    "key": "0198",
    "latitude": -29.92398,
    "longitude": -51.17747,
    "name": "Madero Container Canoas"
  },
  {
    "key": "0199",
    "latitude": -29.99582,
    "longitude": -51.18779,
    "name": "Madero Container Boulevard Laçador"
  },
  {
    "key": "0163",
    "latitude": -23.20130,
    "longitude": -45.90241,
    "name": "Madero Container São José dos Campos"
  },
  {
    "key": "0165",
    "latitude": -23.99808,
    "longitude": -46.40684,
    "name": "Madero Container Litoral Plaza Shopping"
  },
  {
    "key": "0171",
    "latitude": -23.50329,
    "longitude": -46.83356,
    "name": "Madero SteakHouse Shopping Tamboré"
  },
  {
    "key": "0172",
    "latitude": -23.56352,
    "longitude": -46.65269,
    "name": "Madero SteakHouse Cidade São Paulo"
  },
  {
    "key": "0200",
    "latitude": -29.68005,
    "longitude": -51.12245,
    "name": "Madero Container Novo Hamburgo"
  },
  {
    "key": "0202",
    "latitude": -29.57732,
    "longitude": -50.7919625,
    "name": "Madero Container Alles Blau"
  },
  {
    "key": "0166",
    "latitude": -29.16340,
    "longitude": -51.17967,
    "name": "Madero Container Caxias do Sul"
  },
  {
    "key": "0168",
    "latitude": -19.97557,
    "longitude": -43.94642,
    "name": "Madero SteakHouse BH Shopping"
  },
  {
    "key": "0206",
    "latitude": -16.71043,
    "longitude": -49.22287,
    "name": "Jeronimo Burger Flamboyant"
  },
  {
    "key": "J041",
    "latitude": -23.69251,
    "longitude": -46.55088,
    "name": "Madero SteakHouse Shopping Metropole"
  },
  {
    "key": "J070",
    "latitude": -15.69567,
    "longitude": -47.87308,
    "name": "Jeronimo Track Taquari"
  },
  {
    "key": "0225",
    "latitude": -16.71043,
    "longitude": -49.22287,
    "name": "Madero SteakHouse Flamboyant"
  },
  {
    "key": "0228",
    "latitude": -20.45766,
    "longitude": -54.58791,
    "name": "Madero SteakHouse Shopping Campo Grande"
  },
  {
    "key": "0227",
    "latitude": -10.18402,
    "longitude": -48.32561,
    "name": "Madero Container Palmas"
  },
  {
    "key": "0173",
    "latitude": -23.62109,
    "longitude": -46.69924,
    "name": "Madero SteakHouse Market Place"
  },
  {
    "key": "0174",
    "latitude": -22.86426,
    "longitude": -47.02150,
    "name": "Madero SteakHouse Galleria Campinas"
  },
  {
    "key": "0175",
    "latitude": -23.62004,
    "longitude": -46.55540,
    "name": "Madero Container Nazaret"
  }
]
