[
  {
    "key": "0028",
    "latitude": -25.45119,
    "longitude": -49.22848,
    "name": "Madero Burger Jardim das Américas"
  },
  {
    "key": "0024",
    "latitude": -25.42256,
    "longitude": -49.27031,
    "name": "Madero Burger Shopping Mueller"
  },
  {
    "key": "0272",
    "latitude": -25.45222,
    "longitude": -49.36117,
    "name": "Madero Container JK MALL"
  },
  {
    "key": "J043",
    "latitude": -23.56081,
    "longitude": -46.67110,
    "name": "Jeronimo Burger Oscar Freire"
  },
  {
    "key": "0319",
    "latitude": -23.48830,
    "longitude": -46.63267,
    "name": "Madero Container Augusto Tolle"
  },
  {
    "key": "J081",
    "latitude": -25.40830,
    "longitude": -49.25077,
    "name": "Jeronimo Track Munhoz da Rocha"
  },
  {
    "key": "J078",
    "latitude": -19.82149,
    "longitude": -43.94726,
    "name": "Jeronimo Burger Shopping Estação BH"
  },
  {
    "key": "0025",
    "latitude": -25.43861,
    "longitude": -49.27780,
    "name": "Madero Burger Shopping Curitiba"
  },
  {
    "key": "J080",
    "latitude": -23.11025,
    "longitude": -47.23007,
    "name": "Jeronimo Track Indaiatuba"
  },
  {
    "key": "0167",
    "latitude": -23.51502,
    "longitude": -46.61693,
    "name": "Madero SteakHouse Center Norte"
  },
  {
    "key": "0210",
    "latitude": -21.18050,
    "longitude": -47.80813,
    "name": "Madero Burger Shopping Santa Úrsula"
  },
  {
    "key": "0207",
    "latitude": -16.62755,
    "longitude": -49.27818,
    "name": "Madero Burger Shopping Passeio das Águas"
  },
  {
    "key": "0006",
    "latitude": -25.438387,
    "longitude": -49.266746,
    "name": "Madero SteakHouse Shopping Estação"
  },
  {
    "key": "J060",
    "latitude": -22.90088,
    "longitude": -43.11310,
    "name": "Madero Burger Icaraí"
  },
  {
    "key": "0004",
    "latitude": -25.42560,
    "longitude": -49.27627,
    "name": "Madero SteakHouse Prime"
  },
  {
    "key": "0015",
    "latitude": -25.42809,
    "longitude": -49.29517,
    "name": "Madero SteakHouse Champagnat"
  },
  {
    "key": "0011",
    "latitude": -25.43442,
    "longitude": -49.27785,
    "name": "Madero SteakHouse Comendador"
  },
  {
    "key": "V002",
    "latitude": -25.4233736,
    "longitude": -49.2705198,
    "name": "Jeronimo Burger Shopping Mueller"
  },
  {
    "key": "0017",
    "latitude": -25.42360,
    "longitude": -49.24183,
    "name": "Madero SteakHouse Jardim Social"
  },
  {
    "key": "0032",
    "latitude": -25.44334,
    "longitude": -49.29044,
    "name": "Madero SteakHouse Patio Batel"
  },
  {
    "key": "0022",
    "latitude": -25.44616,
    "longitude": -49.29510,
    "name": "Madero SteakHouse Batel"
  },
  {
    "key": "0037",
    "latitude": -25.43512,
    "longitude": -49.28612,
    "name": "Jeronimo Burger Pc da Espanha"
  },
  {
    "key": "J071",
    "latitude": -24.9509875,
    "longitude": -53.4253648,
    "name": "Jeronimo Track Cascavel"
  },
  {
    "key": "0047",
    "latitude": -25.43424,
    "longitude": -50.05335,
    "name": "Madero Container Palmeira"
  },
  {
    "key": "0074",
    "latitude": -25.35128,
    "longitude": -51.45798,
    "name": "Madero Container Guarapuava"
  },
  {
    "key": "0217",
    "latitude": -25.52289,
    "longitude": -54.56213,
    "name": "Madero SteakHouse Foz do Iguaçu"
  },
  {
    "key": "0169",
    "latitude": -24.95064,
    "longitude": -53.47673,
    "name": "Madero SteakHouse JL Shopping Cascavel"
  },
  {
    "key": "0038",
    "latitude": -25.09489,
    "longitude": -50.15205,
    "name": "Madero SteakHouse Ponta Grossa"
  },
  {
    "key": "0232",
    "latitude": -23.42017,
    "longitude": -51.96955,
    "name": "Madero SteakHouse Shopping Catuai Maringa"
  },
  {
    "key": "0233",
    "latitude": -23.34222,
    "longitude": -51.18535,
    "name": "Madero SteakHouse Shopping Catuaí Londrina"
  },
  {
    "key": "0263",
    "latitude": -25.44681,
    "longitude": -49.50756,
    "name": "Madero Container Campo Largo"
  },
  {
    "key": "0278",
    "latitude": -23.78011,
    "longitude": -53.30135,
    "name": "Madero Container Umuarama"
  },
  {
    "key": "J026",
    "latitude": -25.09368,
    "longitude": -50.15906,
    "name": "Jeronimo Track Ponta Grossa"
  },
  {
    "key": "0285",
    "latitude": -25.47775,
    "longitude": -49.29096,
    "name": "Madero SteakHouse Shopping Palladium Curitiba"
  },
  {
    "key": "0316",
    "latitude": -25.41032,
    "longitude": -49.25311,
    "name": "Madero SteakHouse Cabral"
  },
  {
    "key": "J045",
    "latitude": -23.33085,
    "longitude": -51.17773,
    "name": "Jeronimo Track Londrina"
  },
  {
    "key": "J028",
    "latitude": -25.53485,
    "longitude": -49.18617,
    "name": "Jeronimo Burger Aeroporto Afonso Pena"
  },
  {
    "key": "J011",
    "latitude": -25.4409909,
    "longitude": -49.2774894,
    "name": "Jeronimo Burger Shopping Curitiba"
  },
  {
    "key": "J008",
    "latitude": -25.43811,
    "longitude": -49.26656,
    "name": "Jeronimo Burger Shopping Estação"
  },
  {
    "key": "H004",
    "latitude": -25.53485,
    "longitude": -49.18617,
    "name": "Madero SteakHouse Afonso Pena"
  },
  {
    "key": "H003",
    "latitude": -25.47775,
    "longitude": -49.29096,
    "name": "Jeronimo Burger Shopping Palladium"
  },
  {
    "key": "0016",
    "latitude": -27.10613,
    "longitude": -52.61176,
    "name": "Madero Container Chapecó"
  }
]
