[
  {
    "key": "0028",
    "latitude": -25.45119,
    "longitude": -49.22848,
    "name": "Madero Burger Jardim das Américas"
  },
  {
    "key": "0024",
    "latitude": -25.42256,
    "longitude": -49.27031,
    "name": "Madero Burger Shopping Mueller"
  },
  {
    "key": "0272",
    "latitude": -25.45222,
    "longitude": -49.36117,
    "name": "Madero Container JK MALL"
  },
  {
    "key": "J043",
    "latitude": -23.56081,
    "longitude": -46.67110,
    "name": "Jeronimo Burger Oscar Freire"
  },
  {
    "key": "0319",
    "latitude": -23.48830,
    "longitude": -46.63267,
    "name": "Madero Container Augusto Tolle"
  },
  {
    "key": "J081",
    "latitude": -25.40830,
    "longitude": -49.25077,
    "name": "Jeronimo Track Munhoz da Rocha"
  },
  {
    "key": "J078",
    "latitude": -19.82149,
    "longitude": -43.94726,
    "name": "Jeronimo Burger Shopping Estação BH"
  },
  {
    "key": "0025",
    "latitude": -25.43861,
    "longitude": -49.27780,
    "name": "Madero Burger Shopping Curitiba"
  },
  {
    "key": "J080",
    "latitude": -23.11025,
    "longitude": -47.23007,
    "name": "Jeronimo Track Indaiatuba"
  },
  {
    "key": "0167",
    "latitude": -23.51502,
    "longitude": -46.61693,
    "name": "Madero SteakHouse Center Norte"
  },
  {
    "key": "0210",
    "latitude": -21.18050,
    "longitude": -47.80813,
    "name": "Madero Burger Shopping Santa Úrsula"
  },
  {
    "key": "0207",
    "latitude": -16.62755,
    "longitude": -49.27818,
    "name": "Madero Burger Shopping Passeio das Águas"
  },
  {
    "key": "0006",
    "latitude": -25.438387,
    "longitude": -49.266746,
    "name": "Madero SteakHouse Shopping Estação"
  },
  {
    "key": "J060",
    "latitude": -22.90088,
    "longitude": -43.11310,
    "name": "Madero Burger Icaraí"
  },
  {
    "key": "0004",
    "latitude": -25.42560,
    "longitude": -49.27627,
    "name": "Madero SteakHouse Prime"
  },
  {
    "key": "0015",
    "latitude": -25.42809,
    "longitude": -49.29517,
    "name": "Madero SteakHouse Champagnat"
  },
  {
    "key": "0011",
    "latitude": -25.43442,
    "longitude": -49.27785,
    "name": "Madero SteakHouse Comendador"
  },
  {
    "key": "V002",
    "latitude": -25.4233736,
    "longitude": -49.2705198,
    "name": "Jeronimo Burger Shopping Mueller"
  },
  {
    "key": "0017",
    "latitude": -25.42360,
    "longitude": -49.24183,
    "name": "Madero SteakHouse Jardim Social"
  },
  {
    "key": "0032",
    "latitude": -25.44334,
    "longitude": -49.29044,
    "name": "Madero SteakHouse Patio Batel"
  },
  {
    "key": "0022",
    "latitude": -25.44616,
    "longitude": -49.29510,
    "name": "Madero SteakHouse Batel"
  }
]