[
  {
    "key": "0028",
    "latitude": -25.45119,
    "longitude": -49.22848,
    "name": "Madero Burger Jardim das Américas"
  },
  {
    "key": "0024",
    "latitude": -25.42256,
    "longitude": -49.27031,
    "name": "Madero Burger Shopping Mueller"
  },
  {
    "key": "0272",
    "latitude": -25.45222,
    "longitude": -49.36117,
    "name": "Madero Container JK MALL"
  },
  {
    "key": "J043",
    "latitude": -23.56081,
    "longitude": -46.67110,
    "name": "Jeronimo Burger Oscar Freire"
  },
  {
    "key": "0319",
    "latitude": -23.48830,
    "longitude": -46.63267,
    "name": "Madero Container Augusto Tolle"
  },
  {
    "key": "J081",
    "latitude": -25.40830,
    "longitude": -49.25077,
    "name": "Jeronimo Track Munhoz da Rocha"
  },
  {
    "key": "J078",
    "latitude": -19.82149,
    "longitude": -43.94726,
    "name": "Jeronimo Burger Shopping Estação BH"
  },
  {
    "key": "0025",
    "latitude": -25.43861,
    "longitude": -49.27780,
    "name": "Madero Burger Shopping Curitiba"
  },
  {
    "key": "J080",
    "latitude": -23.11025,
    "longitude": -47.23007,
    "name": "Jeronimo Track Indaiatuba"
  },
  {
    "key": "0167",
    "latitude": -23.51502,
    "longitude": -46.61693,
    "name": "Madero SteakHouse Center Norte"
  },
  {
    "key": "0210",
    "latitude": -21.18050,
    "longitude": -47.80813,
    "name": "Madero Burger Shopping Santa Úrsula"
  },
  {
    "key": "0207",
    "latitude": -16.62755,
    "longitude": -49.27818,
    "name": "Madero Burger Shopping Passeio das Águas"
  },
  {
    "key": "0006",
    "latitude": -25.438387,
    "longitude": -49.266746,
    "name": "Madero SteakHouse Shopping Estação"
  },
  {
    "key": "J060",
    "latitude": -22.90088,
    "longitude": -43.11310,
    "name": "Madero Burger Icaraí"
  },
  {
    "key": "0004",
    "latitude": -25.42560,
    "longitude": -49.27627,
    "name": "Madero SteakHouse Prime"
  },
  {
    "key": "0015",
    "latitude": -25.42809,
    "longitude": -49.29517,
    "name": "Madero SteakHouse Champagnat"
  },
  {
    "key": "0011",
    "latitude": -25.43442,
    "longitude": -49.27785,
    "name": "Madero SteakHouse Comendador"
  },
  {
    "key": "V002",
    "latitude": -25.4233736,
    "longitude": -49.2705198,
    "name": "Jeronimo Burger Shopping Mueller"
  },
  {
    "key": "0017",
    "latitude": -25.42360,
    "longitude": -49.24183,
    "name": "Madero SteakHouse Jardim Social"
  },
  {
    "key": "0032",
    "latitude": -25.44334,
    "longitude": -49.29044,
    "name": "Madero SteakHouse Patio Batel"
  },
  {
    "key": "0022",
    "latitude": -25.44616,
    "longitude": -49.29510,
    "name": "Madero SteakHouse Batel"
  },
  {
    "key": "0037",
    "latitude": -25.43512,
    "longitude": -49.28612,
    "name": "Jeronimo Burger Pc da Espanha"
  },
  {
    "key": "J071",
    "latitude": -24.9509875,
    "longitude": -53.4253648,
    "name": "Jeronimo Track Cascavel"
  },
  {
    "key": "0047",
    "latitude": -25.43424,
    "longitude": -50.05335,
    "name": "Madero Container Palmeira"
  },
  {
    "key": "0074",
    "latitude": -25.35128,
    "longitude": -51.45798,
    "name": "Madero Container Guarapuava"
  },
  {
    "key": "0217",
    "latitude": -25.52289,
    "longitude": -54.56213,
    "name": "Madero SteakHouse Foz do Iguaçu"
  },
  {
    "key": "0169",
    "latitude": -24.95064,
    "longitude": -53.47673,
    "name": "Madero SteakHouse JL Shopping Cascavel"
  },
  {
    "key": "0038",
    "latitude": -25.09489,
    "longitude": -50.15205,
    "name": "Madero SteakHouse Ponta Grossa"
  },
  {
    "key": "0232",
    "latitude": -23.42017,
    "longitude": -51.96955,
    "name": "Madero SteakHouse Shopping Catuai Maringa"
  },
  {
    "key": "0233",
    "latitude": -23.34222,
    "longitude": -51.18535,
    "name": "Madero SteakHouse Shopping Catuaí Londrina"
  },
  {
    "key": "0263",
    "latitude": -25.44681,
    "longitude": -49.50756,
    "name": "Madero Container Campo Largo"
  },
  {
    "key": "0278",
    "latitude": -23.78011,
    "longitude": -53.30135,
    "name": "Madero Container Umuarama"
  },
  {
    "key": "J026",
    "latitude": -25.09368,
    "longitude": -50.15906,
    "name": "Jeronimo Track Ponta Grossa"
  },
  {
    "key": "0285",
    "latitude": -25.47775,
    "longitude": -49.29096,
    "name": "Madero SteakHouse Shopping Palladium Curitiba"
  },
  {
    "key": "0316",
    "latitude": -25.41032,
    "longitude": -49.25311,
    "name": "Madero SteakHouse Cabral"
  },
  {
    "key": "J045",
    "latitude": -23.33085,
    "longitude": -51.17773,
    "name": "Jeronimo Track Londrina"
  },
  {
    "key": "J028",
    "latitude": -25.53485,
    "longitude": -49.18617,
    "name": "Jeronimo Burger Aeroporto Afonso Pena"
  },
  {
    "key": "J011",
    "latitude": -25.4409909,
    "longitude": -49.2774894,
    "name": "Jeronimo Burger Shopping Curitiba"
  },
  {
    "key": "J008",
    "latitude": -25.43811,
    "longitude": -49.26656,
    "name": "Jeronimo Burger Shopping Estação"
  },
  {
    "key": "H004",
    "latitude": -25.53485,
    "longitude": -49.18617,
    "name": "Madero SteakHouse Afonso Pena"
  },
  {
    "key": "H003",
    "latitude": -25.47775,
    "longitude": -49.29096,
    "name": "Jeronimo Burger Shopping Palladium"
  },
  {
    "key": "0016",
    "latitude": -27.10613,
    "longitude": -52.61176,
    "name": "Madero Container Chapecó"
  },
  {
    "key": "0180",
    "latitude": -26.63700,
    "longitude": -48.69775,
    "name": "Madero Container Barra Velha -SC"
  },
  {
    "key": "0181",
    "latitude": -26.91239,
    "longitude": -48.65383,
    "name": "Madero Container Itajaí -SC"
  },
  {
    "key": "0182",
    "latitude": -29.00365,
    "longitude": -49.55951,
    "name": "Madero Container Araranguá"
  },
  {
    "key": "0183",
    "latitude": -27.61155,
    "longitude": -48.64029,
    "name": "Madero SteakHouse Shopping Continente"
  },
  {
    "key": "0317",
    "latitude": -26.25379,
    "longitude": -48.853394,
    "name": "Madero SteakHouse Shopping Mueller Joinville"
  },
  {
    "key": "0184",
    "latitude": -26.25379,
    "longitude": -48.85339,
    "name": "Madero SteakHouse Shopping Garten"
  },
  {
    "key": "0264",
    "latitude": -27.58492,
    "longitude": -48.54501,
    "name": "Madero SteakHouse Shopping Beira Mar Floripa"
  },
  {
    "key": "0298",
    "latitude": -27.08926,
    "longitude": -48.61325,
    "name": "Madero Container Itapema"
  },
  {
    "key": "J022",
    "latitude": -27.58975,
    "longitude": -48.51528,
    "name": "Jeronimo Burger Shopping Iguatemi Floripa"
  },
  {
    "key": "J033",
    "latitude": -26.99269,
    "longitude": -48.64529,
    "name": "Jeronimo Burger Shopping Balneário "
  },
  {
    "key": "J036",
    "latitude": -26.99253,
    "longitude": -48.62914,
    "name": "Jeronimo Burger Millenium"
  },
  {
    "key": "0283",
    "latitude": -26.44184,
    "longitude": -48.79946,
    "name": "Madero Container Sinuelo"
  },
  {
    "key": "J072",
    "latitude": -26.28977,
    "longitude": -48.84361,
    "name": "Jeronimo Track Joinville"
  },
  {
    "key": "0300",
    "latitude": -26.99253,
    "longitude": -48.6291382,
    "name": "Madero SteakHouse Shopping Balnerário -SC"
  },
  {
    "key": "0287",
    "latitude": -27.52555,
    "longitude": -48.51356,
    "name": "Madero Container Primavera Garden"
  },
  {
    "key": "0299",
    "latitude": -26.99611,
    "longitude": -48.62651,
    "name": "Madero SteakHouse Atlântica - BC"
  },
  {
    "key": "0195",
    "latitude": -29.99743,
    "longitude": -51.13192,
    "name": "Madero Container Assis Brasil"
  },
  {
    "key": "J020",
    "latitude": -30.03285,
    "longitude": -51.1952677,
    "name": "Jeronimo Burger Bela Vista"
  },
  {
    "key": "0297",
    "latitude": -26.92066,
    "longitude": -49.06993,
    "name": "Madero SteakHouse Blumenau"
  },
  {
    "key": "0196",
    "latitude": -30.05932,
    "longitude": -51.17909,
    "name": "Madero Container PUC POA"
  },
  {
    "key": "J017",
    "latitude": -30.02387,
    "longitude": -51.1623311,
    "name": "Jeronimo Burger Shopping Iguatemi Porto Alegre"
  },
  {
    "key": "0197",
    "latitude": -30.02211,
    "longitude": -51.17281,
    "name": "Madero Container Anita"
  },
  {
    "key": "0205",
    "latitude": -30.05001,
    "longitude": -51.2288272,
    "name": "Madero SteakHouse Praia de Belas"
  },
  {
    "key": "0204",
    "latitude": -28.26357,
    "longitude": -52.40181,
    "name": "Madero Container Passo Fundo"
  },
  {
    "key": "0198",
    "latitude": -29.92398,
    "longitude": -51.17747,
    "name": "Madero Container Canoas"
  },
  {
    "key": "0199",
    "latitude": -29.99582,
    "longitude": -51.18779,
    "name": "Madero Container Boulevard Laçador"
  },
  {
    "key": "0163",
    "latitude": -23.20130,
    "longitude": -45.90241,
    "name": "Madero Container São José dos Campos"
  },
  {
    "key": "0165",
    "latitude": -23.99808,
    "longitude": -46.40684,
    "name": "Madero Container Litoral Plaza Shopping"
  },
  {
    "key": "0171",
    "latitude": -23.50329,
    "longitude": -46.83356,
    "name": "Madero SteakHouse Shopping Tamboré"
  },
  {
    "key": "0172",
    "latitude": -23.56352,
    "longitude": -46.65269,
    "name": "Madero SteakHouse Cidade São Paulo"
  },
  {
    "key": "0200",
    "latitude": -29.68005,
    "longitude": -51.12245,
    "name": "Madero Container Novo Hamburgo"
  },
  {
    "key": "0202",
    "latitude": -29.57732,
    "longitude": -50.7919625,
    "name": "Madero Container Alles Blau"
  },
  {
    "key": "0166",
    "latitude": -29.16340,
    "longitude": -51.17967,
    "name": "Madero Container Caxias do Sul"
  },
  {
    "key": "0168",
    "latitude": -19.97557,
    "longitude": -43.94642,
    "name": "Madero SteakHouse BH Shopping"
  },
  {
    "key": "0206",
    "latitude": -16.71043,
    "longitude": -49.22287,
    "name": "Jeronimo Burger Flamboyant"
  },
  {
    "key": "J041",
    "latitude": -23.69251,
    "longitude": -46.55088,
    "name": "Madero SteakHouse Shopping Metropole"
  },
  {
    "key": "J070",
    "latitude": -15.69567,
    "longitude": -47.87308,
    "name": "Jeronimo Track Taquari"
  },
  {
    "key": "0225",
    "latitude": -16.71043,
    "longitude": -49.22287,
    "name": "Madero SteakHouse Flamboyant"
  },
  {
    "key": "0228",
    "latitude": -20.45766,
    "longitude": -54.58791,
    "name": "Madero SteakHouse Shopping Campo Grande"
  },
  {
    "key": "0227",
    "latitude": -10.18402,
    "longitude": -48.32561,
    "name": "Madero Container Palmas"
  },
  {
    "key": "0173",
    "latitude": -23.62109,
    "longitude": -46.69924,
    "name": "Madero SteakHouse Market Place"
  },
  {
    "key": "0174",
    "latitude": -22.86426,
    "longitude": -47.02150,
    "name": "Madero SteakHouse Galleria Campinas"
  },
  {
    "key": "0175",
    "latitude": -23.62004,
    "longitude": -46.55540,
    "name": "Madero Container Nazaret"
  },
  {
    "key": "0177",
    "latitude": -23.61026,
    "longitude": -46.67742,
    "name": "Madero Container Santo Amaro"
  },
  {
    "key": "0178",
    "latitude": -23.56564,
    "longitude": -46.50490,
    "name": "Madero SteakHouse Aricanduva"
  },
  {
    "key": "0179",
    "latitude": -23.65822,
    "longitude": -46.69793,
    "name": "Madero Container Washington Luis"
  },
  {
    "key": "0201",
    "latitude": -30.02512,
    "longitude": -51.16242,
    "name": "Madero SteakHouse Porto Alegre Iguatemi"
  },
  {
    "key": "0185",
    "latitude": -23.57315,
    "longitude": -46.69562,
    "name": "Madero SteakHouse Shopping Eldorado"
  },
  {
    "key": "0187",
    "latitude": -23.62623,
    "longitude": -46.68819,
    "name": "Madero SteakHouse Morumbi"
  },
  {
    "key": "0188",
    "latitude": -23.55933,
    "longitude": -46.56834,
    "name": "Madero SteakHouse Analia Franco"
  },
  {
    "key": "0190",
    "latitude": -22.99861,
    "longitude": -47.10205,
    "name": "Madero Container Serra Azul"
  },
  {
    "key": "0191",
    "latitude": -23.44357,
    "longitude": -46.5399074,
    "name": "Madero SteakHouse Shopping Maia"
  },
  {
    "key": "0192",
    "latitude": -23.62214,
    "longitude": -46.70151,
    "name": "Jeronimo Burger Parque Cidade"
  },
  {
    "key": "0193",
    "latitude": -23.65351,
    "longitude": -46.5321106,
    "name": "Madero Container Padre Anchieta"
  },
  {
    "key": "0194",
    "latitude": -23.4845991,
    "longitude": -46.8554294,
    "name": "Madero Container do Forte Alphaville"
  },
  {
    "key": "0208",
    "latitude": -21.21198,
    "longitude": -47.81588,
    "name": "Madero SteakHouse Ribeirão Preto"
  },
  {
    "key": "0209",
    "latitude": -22.3423838,
    "longitude": -49.04937,
    "name": "Madero SteakHouse Bauru"
  },
  {
    "key": "0211",
    "latitude": -22.84563,
    "longitude": -47.06418,
    "name": "Madero SteakHouse Shopping Parque Dom Pedro"
  },
  {
    "key": "0212",
    "latitude": -23.2585918,
    "longitude": -45.8029926,
    "name": "Madero Container Carvalho Pinto"
  },
  {
    "key": "0280",
    "latitude": -1.38525,
    "longitude": -48.46509,
    "name": "Madero SteakHouse Shopping Grão-Pará"
  },
  {
    "key": "0230",
    "latitude": -20.31210,
    "longitude": -40.28805,
    "name": "Madero SteakHouse Vitoria"
  },
  {
    "key": "0281",
    "latitude": -1.44533,
    "longitude": -48.48920,
    "name": "Madero SteakHouse Shopping Boulevard Belém"
  },
  {
    "key": "0236",
    "latitude": -3.74050,
    "longitude": -38.47194,
    "name": "Madero SteakHouse Shopping Riomar Fortaleza"
  },
  {
    "key": "0279",
    "latitude": -3.75542,
    "longitude": -38.48859,
    "name": "Madero SteakHouse Shopping Iguatemi Fortaleza"
  },
  {
    "key": "J024",
    "latitude": -3.74052,
    "longitude": -38.47209,
    "name": "Jeronimo Burger Shopping Riomar Fortaleza"
  },
  {
    "key": "0290",
    "latitude": -5.84176,
    "longitude": -35.21161,
    "name": "Madero SteakHouse Shopping Natal"
  },
  {
    "key": "0231",
    "latitude": -20.34194,
    "longitude": -40.28784,
    "name": "Madero SteakHouse Vila Velha"
  },
  {
    "key": "0237",
    "latitude": -8.08744,
    "longitude": -34.89108,
    "name": "Madero SteakHouse Shopping Riomar Recife"
  },
  {
    "key": "0238",
    "latitude": -8.11895,
    "longitude": -34.90483,
    "name": "Madero SteakHouse Shopping Recife"
  },
  {
    "key": "0303",
    "latitude": -12.97854,
    "longitude": -38.45509,
    "name": "Madero SteakHouse Shopping Salvador"
  },
  {
    "key": "0240",
    "latitude": -13.00512,
    "longitude": -38.52411,
    "name": "Madero SteakHouse Shopping Salvador Barra"
  },
  {
    "key": "0213",
    "latitude": -23.66953,
    "longitude": -46.53864,
    "name": "Madero Container Santo André"
  },
  {
    "key": "0214",
    "latitude": -23.81656,
    "longitude": -46.5834568,
    "name": "Madero Container Imigrantes"
  },
  {
    "key": "0239",
    "latitude": -12.97854,
    "longitude": -38.45509,
    "name": "Jeronimo Burger Shopping Salvador"
  },
  {
    "key": "0215",
    "latitude": -23.62566,
    "longitude": -46.5801609,
    "name": "Madero SteakHouse São Caetano"
  },
  {
    "key": "0216",
    "latitude": -20.8144579,
    "longitude": -49.4597609,
    "name": "Madero Container Mirassol"
  },
  {
    "key": "0218",
    "latitude": -22.70399,
    "longitude": -47.64987,
    "name": "Madero SteakHouse Piracicaba"
  },
  {
    "key": "0241",
    "latitude": -10.96852,
    "longitude": -37.03723,
    "name": "Madero SteakHouse Shopping Riomar Aracaju"
  },
  {
    "key": "0219",
    "latitude": -23.56111,
    "longitude": -46.70476,
    "name": "Madero Container Pinheiros"
  },
  {
    "key": "0286",
    "latitude": -16.70748,
    "longitude": -49.27311,
    "name": "Madero SteakHouse Shopping Goiania"
  },
  {
    "key": "0220",
    "latitude": -23.67885,
    "longitude": -46.55711,
    "name": "Madero Container Kennedy"
  },
  {
    "key": "0221",
    "latitude": -22.75319,
    "longitude": -47.34587,
    "name": "Madero Container Americana"
  },
  {
    "key": "0222",
    "latitude": -23.53957,
    "longitude": -46.72792,
    "name": "Madero Container Villa Lobos"
  },
  {
    "key": "0223",
    "latitude": -22.89800,
    "longitude": -47.04924,
    "name": "Madero Container Cambui"
  },
  {
    "key": "J054",
    "latitude": -16.70748,
    "longitude": -49.27311,
    "name": "Jeronimo Burger Shopping Goiania"
  },
  {
    "key": "0289",
    "latitude": -15.58969,
    "longitude": -56.12079,
    "name": "Madero SteakHouse Shopping Estação Cuiabá"
  },
  {
    "key": "0242",
    "latitude": -19.92233,
    "longitude": -43.93976,
    "name": "Madero SteakHouse Shopping Cidade BH"
  },
  {
    "key": "J050",
    "latitude": -18.90939,
    "longitude": -48.26035,
    "name": "Jeronimo Burger Shopping Uberlândia"
  },
  {
    "key": "0245",
    "latitude": -21.74404,
    "longitude": -43.36338,
    "name": "Madero Container Juiz de Fora"
  },
  {
    "key": "0246",
    "latitude": -19.80392,
    "longitude": -43.95018,
    "name": "Madero Container Cidade ADM"
  },
  {
    "key": "0224",
    "latitude": -20.86645,
    "longitude": -49.41441,
    "name": "Madero SteakHouse Shopping Iguatemi Rio Preto"
  },
  {
    "key": "0229",
    "latitude": -23.67857,
    "longitude": -46.69860,
    "name": "Madero SteakHouse SP Market"
  },
  {
    "key": "0234",
    "latitude": -23.53782,
    "longitude": -47.46597,
    "name": "Madero SteakHouse Shopping Iguatemi Esplanada"
  },
  {
    "key": "0294",
    "latitude": -23.54360,
    "longitude": -46.76306,
    "name": "Madero SteakHouse União Osasco"
  },
  {
    "key": "0249",
    "latitude": -23.96374,
    "longitude": -46.32292,
    "name": "Madero Container Conselheiro Nebias"
  },
  {
    "key": "0250",
    "latitude": -23.59533,
    "longitude": -46.68727,
    "name": "Madero SteakHouse Vila Olimpia"
  },
  {
    "key": "0251",
    "latitude": -23.40523,
    "longitude": -47.30595,
    "name": "Madero Container Itú"
  },
  {
    "key": "0252",
    "latitude": -23.60848,
    "longitude": -46.75369,
    "name": "Madero Container Taboão da Serra"
  },
  {
    "key": "0271",
    "latitude": -18.90939,
    "longitude": -48.26035,
    "name": "Madero SteakHouse Shopping Uberlândia"
  },
  {
    "key": "0253",
    "latitude": -23.19966,
    "longitude": -46.89046,
    "name": "Madero SteakHouse Jundiaí"
  },
  {
    "key": "0254",
    "latitude": -23.51595,
    "longitude": -46.17957,
    "name": "Madero Container Mogi das Cruzes"
  },
  {
    "key": "0255",
    "latitude": -23.58135,
    "longitude": -46.59379,
    "name": "Madero SteakHouse Mooca"
  },
  {
    "key": "0266",
    "latitude": -19.92068,
    "longitude": -43.92012,
    "name": "Madero SteakHouse Shopping Boulevard BH"
  },
  {
    "key": "0256",
    "latitude": -23.11633,
    "longitude": -47.21943,
    "name": "Madero Container Indaiatuba"
  },
  {
    "key": "0267",
    "latitude": -23.58241,
    "longitude": -46.71261,
    "name": "Madero Container Francisco Morato"
  },
  {
    "key": "0268",
    "latitude": -23.02277,
    "longitude": -45.58190,
    "name": "Madero Container Taubate"
  },
  {
    "key": "0270",
    "latitude": -22.75523,
    "longitude": -45.10649,
    "name": "Madero Container Lorena"
  },
  {
    "key": "0247",
    "latitude": -19.87536,
    "longitude": -43.92526,
    "name": "Madero Container Minas Shopping"
  },
  {
    "key": "0269",
    "latitude": -22.90077,
    "longitude": -45.30424,
    "name": "Madero Container Roseira"
  },
  {
    "key": "0277",
    "latitude": -23.45324,
    "longitude": -46.46936,
    "name": "Madero Container Sakamoto"
  },
  {
    "key": "0243",
    "latitude": -19.96521,
    "longitude": -43.94521,
    "name": "Jeronimo Burger Shopping BH"
  },
  {
    "key": "0288",
    "latitude": -23.60245,
    "longitude": -46.68211,
    "name": "Madero Container Inês Pereira"
  },
  {
    "key": "0292",
    "latitude": -23.60495,
    "longitude": -46.62649,
    "name": "Madero SteakHouse Shopping Plaza Sul"
  },
  {
    "key": "0293",
    "latitude": -23.58440,
    "longitude": -46.67508,
    "name": "Madero SteakHouse Brascan"
  },
  {
    "key": "0244",
    "latitude": -19.76684,
    "longitude": -47.95273,
    "name": "Madero Container Uberaba"
  },
  {
    "key": "0295",
    "latitude": -22.53314,
    "longitude": -47.38611,
    "name": "Madero Container Shopping Limeira"
  },
  {
    "key": "0296",
    "latitude": -23.17608,
    "longitude": -46.90892,
    "name": "Madero Container Jundiaí"
  },
  {
    "key": "0305",
    "latitude": -23.62452,
    "longitude": -46.73591,
    "name": "Madero Container Vila Andrade"
  },
  {
    "key": "0306",
    "latitude": -22.37665,
    "longitude": -46.94454,
    "name": "Madero Container Shopping Bloulevard Mogi"
  },
  {
    "key": "0311",
    "latitude": -23.97650,
    "longitude": -46.31018,
    "name": "Madero SteakHouse Shopping Praia Mar"
  },
  {
    "key": "0312",
    "latitude": -23.49276,
    "longitude": -46.84972,
    "name": "Madero SteakHouse Amazonia"
  },
  {
    "key": "0320",
    "latitude": -23.18847,
    "longitude": -46.58402,
    "name": "Madero Container Calabresa"
  },
  {
    "key": "0321",
    "latitude": -23.99214,
    "longitude": -46.25600,
    "name": "Madero Container Guaruja"
  },
  {
    "key": "0322",
    "latitude": -23.54870,
    "longitude": -46.56770,
    "name": "Madero Container Azevedo Soares"
  },
  {
    "key": "0323",
    "latitude": -23.59932,
    "longitude": -46.70853,
    "name": "Madero Container Morumbi Shopping"
  },
  {
    "key": "H005",
    "latitude": -23.18787,
    "longitude": -46.58402,
    "name": "Jeronimo Track Atibaia Calabresa"
  },
  {
    "key": "J005",
    "latitude": -23.55933,
    "longitude": -46.56834,
    "name": "Jeronimo Burger Analia Franco"
  },
  {
    "key": "J006",
    "latitude": -23.10632,
    "longitude": -46.00949,
    "name": "Jeronimo Track Serra Azul"
  }
]
